Postal Code,Prefecture,City,Town,Latitude,Longitude
5340000,OSAKA FU,OSAKA SHI MIYAKOJIMA KU IKANIKEISAIGANAIBAAI,IKANIKEISAIGANAIBAAI,,
5340026,OSAKA FU,OSAKA SHI MIYAKOJIMA KU AMIJIMACHO,AMIJIMACHO,34.709578,135.536833
5340013,OSAKA FU,OSAKA SHI MIYAKOJIMA KU UCHINDAICHO,UCHINDAICHO,34.709801,135.522106
5340025,OSAKA FU,OSAKA SHI MIYAKOJIMA KU KATAMACHI,KATAMACHI,34.695993,135.528614
5340001,OSAKA FU,OSAKA SHI MIYAKOJIMA KU KEMACHO,KEMACHO,34.712973,135.530521
5340015,OSAKA FU,OSAKA SHI MIYAKOJIMA KU ZENGENJICHO,ZENGENJICHO,34.717516,135.526018
5340002,OSAKA FU,OSAKA SHI MIYAKOJIMA KU DAITOCHO,DAITOCHO,34.713199,135.534003
5340011,OSAKA FU,OSAKA SHI MIYAKOJIMA KU TAKAKURACHO,TAKAKURACHO,34.704726,135.529031
5340016,OSAKA FU,OSAKA SHI MIYAKOJIMA KU TOMOBUCHICHO,TOMOBUCHICHO,34.699626,135.523588
5340027,OSAKA FU,OSAKA SHI MIYAKOJIMA KU NAKANOCHO,NAKANOCHO,34.72323,135.529485
5340024,OSAKA FU,OSAKA SHI MIYAKOJIMA KU HIGASHINODAMACHI,HIGASHINODAMACHI,34.710871,135.52432
5340022,OSAKA FU,OSAKA SHI MIYAKOJIMA KU MIYAKOJIMANAKADORI,MIYAKOJIMANAKADORI,34.703946,135.527156
5340021,OSAKA FU,OSAKA SHI MIYAKOJIMA KU MIYAKOJIMAHONDORI,MIYAKOJIMAHONDORI,34.710651,135.52897
5340023,OSAKA FU,OSAKA SHI MIYAKOJIMA KU MIYAKOJIMAMINAMIDORI,MIYAKOJIMAMINAMIDORI,34.718564,135.521369
5340014,OSAKA FU,OSAKA SHI MIYAKOJIMA KU MIYAKOJIMAKITADORI,MIYAKOJIMAKITADORI,34.69268,135.525309
5340012,OSAKA FU,OSAKA SHI MIYAKOJIMA KU MIYUKICHO,MIYUKICHO,,
5530000,OSAKA FU,OSAKA SHI FUKUSHIMA KU IKANIKEISAIGANAIBAAI,IKANIKEISAIGANAIBAAI,,
5530001,OSAKA FU,OSAKA SHI FUKUSHIMA KU EBIE,EBIE,34.698254,135.475745
5530007,OSAKA FU,OSAKA SHI FUKUSHIMA KU OHIRAKI,OHIRAKI,34.695039,135.479289
5530002,OSAKA FU,OSAKA SHI FUKUSHIMA KU SAGISU,SAGISU,34.688522,135.482185
5530004,OSAKA FU,OSAKA SHI FUKUSHIMA KU TAMAGAWA,TAMAGAWA,34.694657,135.489037
5530005,OSAKA FU,OSAKA SHI FUKUSHIMA KU NODA,NODA,34.69266,135.478184
5530003,OSAKA FU,OSAKA SHI FUKUSHIMA KU FUKUSHIMA,FUKUSHIMA,34.684189,135.478525
5530006,OSAKA FU,OSAKA SHI FUKUSHIMA KU YOSHINO,YOSHINO,34.693213,135.472621
5540000,OSAKA FU,OSAKA SHI KONOHANA KU IKANIKEISAIGANAIBAAI,IKANIKEISAIGANAIBAAI,,
5540011,OSAKA FU,OSAKA SHI KONOHANA KU ASAHI,ASAHI,34.68516,135.461233
5540032,OSAKA FU,OSAKA SHI KONOHANA KU UMEMACHI,UMEMACHI,34.681917,135.468518
5540022,OSAKA FU,OSAKA SHI KONOHANA KU KASUGADENAKA,KASUGADENAKA,34.693831,135.460649
5540023,OSAKA FU,OSAKA SHI KONOHANA KU KASUGADEMINAMI,KASUGADEMINAMI,34.685401,135.457081
5540021,OSAKA FU,OSAKA SHI KONOHANA KU KASUGADEKITA,KASUGADEKITA,34.683379,135.460338
5540031,OSAKA FU,OSAKA SHI KONOHANA KU SAKURAJIMA,SAKURAJIMA,34.680747,135.452972
5540014,OSAKA FU,OSAKA SHI KONOHANA KU SHIKANJIMA,SHIKANJIMA,34.678805,135.45777
5540024,OSAKA FU,OSAKA SHI KONOHANA KU SHIMAYA,SHIMAYA,34.687755,135.46038
5540001,OSAKA FU,OSAKA SHI KONOHANA KU TAKAMI,TAKAMI,34.683557,135.451112
5540052,OSAKA FU,OSAKA SHI KONOHANA KU TSUNEYOSHI,TSUNEYOSHI,34.679106,135.442131
5540002,OSAKA FU,OSAKA SHI KONOHANA KU DEMPO,DEMPO,34.684024,135.445456
5540051,OSAKA FU,OSAKA SHI KONOHANA KU TORISHIMA,TORISHIMA,34.663001,135.406327
5540012,OSAKA FU,OSAKA SHI KONOHANA KU NISHIKUJO,NISHIKUJO,34.663674,135.400349
5540013,OSAKA FU,OSAKA SHI KONOHANA KU BAIKA,BAIKA,34.675672,135.419407
5540033,OSAKA FU,OSAKA SHI KONOHANA KU HOKUKO,HOKUKO,34.65727,135.421341
5540041,OSAKA FU,OSAKA SHI KONOHANA KU HOKUKO SHIRATSU,HOKUKO SHIRATSU,34.662663,135.436028
5540042,OSAKA FU,OSAKA SHI KONOHANA KU HOKUKO RYOKUCHI,HOKUKO RYOKUCHI,34.671845,135.4258
5540043,OSAKA FU,OSAKA SHI KONOHANA KU YUMESHIMAHIGASHI,YUMESHIMAHIGASHI,34.65401,135.391692
5500000,OSAKA FU,OSAKA SHI NISHI KU IKANIKEISAIGANAIBAAI,IKANIKEISAIGANAIBAAI,,
5500026,OSAKA FU,OSAKA SHI NISHI KU AJIGAWA,AJIGAWA,34.681024,135.495331
5500011,OSAKA FU,OSAKA SHI NISHI KU AWAZA,AWAZA,34.679678,135.49537
5500012,OSAKA FU,OSAKA SHI NISHI KU ITACHIBORI,ITACHIBORI,34.682734,135.495293
5500004,OSAKA FU,OSAKA SHI NISHI KU UTSUBOHOMMACHI,UTSUBOHOMMACHI,34.687308,135.495002
5500002,OSAKA FU,OSAKA SHI NISHI KU EDOBORI,EDOBORI,34.690697,135.493271
5500006,OSAKA FU,OSAKA SHI NISHI KU ENOKOJIMA,ENOKOJIMA,34.683746,135.484426
5500021,OSAKA FU,OSAKA SHI NISHI KU KAWAGUCHI,KAWAGUCHI,34.678205,135.480996
5500014,OSAKA FU,OSAKA SHI NISHI KU KITAHORIE,KITAHORIE,34.685278,135.495181
5500003,OSAKA FU,OSAKA SHI NISHI KU KYOMACHIBORI,KYOMACHIBORI,34.689904,135.495285
5500027,OSAKA FU,OSAKA SHI NISHI KU KUJO,KUJO,34.679415,135.469474
5500025,OSAKA FU,OSAKA SHI NISHI KU KUJOMINAMI,KUJOMINAMI,34.669897,135.471482
5500024,OSAKA FU,OSAKA SHI NISHI KU SAKAIGAWA,SAKAIGAWA,34.670792,135.49464
5500013,OSAKA FU,OSAKA SHI NISHI KU SHIMMACHI,SHIMMACHI,34.67482,135.475696
5500023,OSAKA FU,OSAKA SHI NISHI KU CHIYOZAKI,CHIYOZAKI,34.673824,135.495182
5500001,OSAKA FU,OSAKA SHI NISHI KU TOSABORI,TOSABORI,34.682537,135.482474
5500005,OSAKA FU,OSAKA SHI NISHI KU NISHIHOMMACHI,NISHIHOMMACHI,34.677187,135.495363
5500022,OSAKA FU,OSAKA SHI NISHI KU HONDEN,HONDEN,34.675471,135.480231
5500015,OSAKA FU,OSAKA SHI NISHI KU MINAMIHORIE,MINAMIHORIE,34.670475,135.475128
5520000,OSAKA FU,OSAKA SHI MINATO KU IKANIKEISAIGANAIBAAI,IKANIKEISAIGANAIBAAI,,
5520015,OSAKA FU,OSAKA SHI MINATO KU IKEJIMA,IKEJIMA,34.65792,135.449062
5520006,OSAKA FU,OSAKA SHI MINATO KU ISHIDA,ISHIDA,34.656408,135.44371
5520003,OSAKA FU,OSAKA SHI MINATO KU ISOJI,ISOJI,34.657707,135.446259
5520012,OSAKA FU,OSAKA SHI MINATO KU ICHIOKA,ICHIOKA,34.673715,135.464851
5520002,OSAKA FU,OSAKA SHI MINATO KU ICHIOKAMOTOMACHI,ICHIOKAMOTOMACHI,34.653246,135.436702
5520022,OSAKA FU,OSAKA SHI MINATO KU KAIGANDORI,KAIGANDORI,34.666815,135.462093
5520023,OSAKA FU,OSAKA SHI MINATO KU KOSEI,KOSEI,34.669501,135.459489
5520005,OSAKA FU,OSAKA SHI MINATO KU TANAKA,TANAKA,34.669647,135.469614
5520021,OSAKA FU,OSAKA SHI MINATO KU CHIKKO,CHIKKO,34.665669,135.44975
5520001,OSAKA FU,OSAKA SHI MINATO KU NAMIYOKE,NAMIYOKE,34.663369,135.453572
5520013,OSAKA FU,OSAKA SHI MINATO KU FUKUZAKI,FUKUZAKI,34.667157,135.471795
5520007,OSAKA FU,OSAKA SHI MINATO KU BENTEN,BENTEN,34.663089,135.461691
5520016,OSAKA FU,OSAKA SHI MINATO KU MISAKI,MISAKI,34.668928,135.452886
5520011,OSAKA FU,OSAKA SHI MINATO KU MINAMIICHIOKA,MINAMIICHIOKA,34.660412,135.455339
5520014,OSAKA FU,OSAKA SHI MINATO KU YAHATAYA,YAHATAYA,34.653754,135.429178
5520004,OSAKA FU,OSAKA SHI MINATO KU YUNAGI,YUNAGI,34.657786,135.459471
5510000,OSAKA FU,OSAKA SHI TAISHO KU IKANIKEISAIGANAIBAAI,IKANIKEISAIGANAIBAAI,,
5510031,OSAKA FU,OSAKA SHI TAISHO KU IZUO,IZUO,34.651833,135.46883
5510033,OSAKA FU,OSAKA SHI TAISHO KU KITAOKAJIMA,KITAOKAJIMA,34.640287,135.477473
5510032,OSAKA FU,OSAKA SHI TAISHO KU KITAMURA,KITAMURA,34.665744,135.480051
5510011,OSAKA FU,OSAKA SHI TAISHO KU KOBAYASHIHIGASHI,KOBAYASHIHIGASHI,34.665574,135.477231
5510013,OSAKA FU,OSAKA SHI TAISHO KU KOBAYASHINISHI,KOBAYASHINISHI,34.635513,135.474672
5510002,OSAKA FU,OSAKA SHI TAISHO KU SANGENYAHIGASHI,SANGENYAHIGASHI,34.652171,135.476207
5510001,OSAKA FU,OSAKA SHI TAISHO KU SANGENYANISHI,SANGENYANISHI,34.661987,135.473082
5510003,OSAKA FU,OSAKA SHI TAISHO KU CHISHIMA,CHISHIMA,34.645738,135.477854
5510023,OSAKA FU,OSAKA SHI TAISHO KU TSURUMACHI,TSURUMACHI,34.634543,135.458621
5510012,OSAKA FU,OSAKA SHI TAISHO KU HIRAO,HIRAO,34.65353,135.464701
5510022,OSAKA FU,OSAKA SHI TAISHO KU FUNAMACHI,FUNAMACHI,34.645688,135.466169
5510021,OSAKA FU,OSAKA SHI TAISHO KU MINAMIOKAJIMA,MINAMIOKAJIMA,34.629233,135.468323
5430000,OSAKA FU,OSAKA SHI TENNOJI KU IKANIKEISAIGANAIBAAI,IKANIKEISAIGANAIBAAI,,
5430023,OSAKA FU,OSAKA SHI TENNOJI KU AJIHARACHO,AJIHARACHO,34.674975,135.520869
5430022,OSAKA FU,OSAKA SHI TENNOJI KU AJIHARAHOMMACHI,AJIHARAHOMMACHI,,
5430073,OSAKA FU,OSAKA SHI TENNOJI KU IKUTAMA TERAMACHI,IKUTAMA TERAMACHI,,
5430072,OSAKA FU,OSAKA SHI TENNOJI KU IKUTAMA MAEMACHI,IKUTAMA MAEMACHI,34.652291,135.515313
5430071,OSAKA FU,OSAKA SHI TENNOJI KU IKUTAMACHO,IKUTAMACHO,34.654892,135.515972
5430031,OSAKA FU,OSAKA SHI TENNOJI KU ISHIGATSUJICHO,ISHIGATSUJICHO,34.662539,135.524588
5430002,OSAKA FU,OSAKA SHI TENNOJI KU UESHIO,UESHIO,34.651845,135.522203
5430037,OSAKA FU,OSAKA SHI TENNOJI KU UENOMIYACHO,UENOMIYACHO,,
5430001,OSAKA FU,OSAKA SHI TENNOJI KU UEHOMMACHI,UEHOMMACHI,34.655429,135.520924
5430016,OSAKA FU,OSAKA SHI TENNOJI KU ESASHIMACHI,ESASHIMACHI,34.65691,135.526826
5430062,OSAKA FU,OSAKA SHI TENNOJI KU OSAKA,OSAKA,,
5430028,OSAKA FU,OSAKA SHI TENNOJI KU OBASECHO,OBASECHO,34.654334,135.511643
5430043,OSAKA FU,OSAKA SHI TENNOJI KU KATSUYAMA,KATSUYAMA,,
5430018,OSAKA FU,OSAKA SHI TENNOJI KU KARAKIYOCHO,KARAKIYOCHO,,
5430042,OSAKA FU,OSAKA SHI TENNOJI KU KARASUGATSUJI,KARASUGATSUJI,,
5430012,OSAKA FU,OSAKA SHI TENNOJI KU KARAHORICHO,KARAHORICHO,,
5430053,OSAKA FU,OSAKA SHI TENNOJI KU KITAKAWAHORICHO,KITAKAWAHORICHO,34.66304,135.5114
5430035,OSAKA FU,OSAKA SHI TENNOJI KU KITAYAMACHO,KITAYAMACHO,,
5430044,OSAKA FU,OSAKA SHI TENNOJI KU KOKUBUCHO,KOKUBUCHO,,
5430036,OSAKA FU,OSAKA SHI TENNOJI KU KOMIYACHO,KOMIYACHO,,
5430032,OSAKA FU,OSAKA SHI TENNOJI KU SAIKUDANI,SAIKUDANI,,
5430015,OSAKA FU,OSAKA SHI TENNOJI KU SANADAYAMACHO,SANADAYAMACHO,,
5430076,OSAKA FU,OSAKA SHI TENNOJI KU SHITADERAMACHI,SHITADERAMACHI,,
5430051,OSAKA FU,OSAKA SHI TENNOJI KU SHITENNOJI,SHITENNOJI,,
5430011,OSAKA FU,OSAKA SHI TENNOJI KU SHIMIZUDANICHO,SHIMIZUDANICHO,,
5430025,OSAKA FU,OSAKA SHI TENNOJI KU SHIMOAJIHARACHO,SHIMOAJIHARACHO,,
5430017,OSAKA FU,OSAKA SHI TENNOJI KU JONANTERAMACHI,JONANTERAMACHI,,
5430041,OSAKA FU,OSAKA SHI TENNOJI KU SHIMPOINCHO,SHIMPOINCHO,34.659972,135.527852
5430052,OSAKA FU,OSAKA SHI TENNOJI KU DAIDO,DAIDO,,
5430013,OSAKA FU,OSAKA SHI TENNOJI KU TAMATSUKURI HOMMACHI,TAMATSUKURI HOMMACHI,,
5430014,OSAKA FU,OSAKA SHI TENNOJI KU TAMATSUKURI MOTOMACHI,TAMATSUKURI MOTOMACHI,,
5430063,OSAKA FU,OSAKA SHI TENNOJI KU CHAUSUYAMACHO,CHAUSUYAMACHO,,
5430045,OSAKA FU,OSAKA SHI TENNOJI KU TERADACHO,TERADACHO,,
5430033,OSAKA FU,OSAKA SHI TENNOJI KU DOGASHIBA,DOGASHIBA,,
5430026,OSAKA FU,OSAKA SHI TENNOJI KU TOJOCHO,TOJOCHO,,
5430021,OSAKA FU,OSAKA SHI TENNOJI KU HIGASHIKOZUCHO,HIGASHIKOZUCHO,,
5430055,OSAKA FU,OSAKA SHI TENNOJI KU HIDENINCHO,HIDENINCHO,,
5430027,OSAKA FU,OSAKA SHI TENNOJI KU FUDEGASAKICHO,FUDEGASAKICHO,,
5430024,OSAKA FU,OSAKA SHI TENNOJI KU FUNAHASHICHO,FUNAHASHICHO,,
5430056,OSAKA FU,OSAKA SHI TENNOJI KU HORIKOSHICHO,HORIKOSHICHO,,
5430034,OSAKA FU,OSAKA SHI TENNOJI KU MATSUGAHANACHO,MATSUGAHANACHO,,
5430054,OSAKA FU,OSAKA SHI TENNOJI KU MINAMIKAWAHORICHO,MINAMIKAWAHORICHO,,
5430075,OSAKA FU,OSAKA SHI TENNOJI KU YUHIGAOKACHO,YUHIGAOKACHO,,
5430061,OSAKA FU,OSAKA SHI TENNOJI KU REININCHO,REININCHO,,
5430074,OSAKA FU,OSAKA SHI TENNOJI KU ROKUMANTAICHO,ROKUMANTAICHO,,
5560000,OSAKA FU,OSAKA SHI NANIWA KU IKANIKEISAIGANAIBAAI,IKANIKEISAIGANAIBAAI,,
5560029,OSAKA FU,OSAKA SHI NANIWA KU ASHIHARA,ASHIHARA,34.661331,135.510105
5560023,OSAKA FU,OSAKA SHI NANIWA KU INARI,INARI,34.66445,135.48722
5560013,OSAKA FU,OSAKA SHI NANIWA KU EBISUHOMMACHI,EBISUHOMMACHI,34.661604,135.508698
5560002,OSAKA FU,OSAKA SHI NANIWA KU EBISUHIGASHI,EBISUHIGASHI,34.653226,135.506634
5560003,OSAKA FU,OSAKA SHI NANIWA KU EBISUNISHI,EBISUNISHI,34.661753,135.487515
5560027,OSAKA FU,OSAKA SHI NANIWA KU KIZUGAWA,KIZUGAWA,34.659234,135.503537
5560028,OSAKA FU,OSAKA SHI NANIWA KU KUBOYOSHI,KUBOYOSHI,34.66177,135.485328
5560021,OSAKA FU,OSAKA SHI NANIWA KU SAIWAICHO,SAIWAICHO,34.655141,135.503633
5560022,OSAKA FU,OSAKA SHI NANIWA KU SAKURAGAWA,SAKURAGAWA,34.668719,135.493364
5560024,OSAKA FU,OSAKA SHI NANIWA KU SHIOKUSA,SHIOKUSA,34.664613,135.492139
5560012,OSAKA FU,OSAKA SHI NANIWA KU SHIKITSUHIGASHI,SHIKITSUHIGASHI,34.66725,135.495627
5560015,OSAKA FU,OSAKA SHI NANIWA KU SHIKITSUNISHI,SHIKITSUNISHI,34.65858,135.486715
5560001,OSAKA FU,OSAKA SHI NANIWA KU SHIMODERA,SHIMODERA,34.657701,135.491367
5560014,OSAKA FU,OSAKA SHI NANIWA KU DAIKOKU,DAIKOKU,,
5560020,OSAKA FU,OSAKA SHI NANIWA KU TATEBA,TATEBA,34.653219,135.497008
5560025,OSAKA FU,OSAKA SHI NANIWA KU NANIWAHIGASHI,NANIWAHIGASHI,34.666894,135.492846
5560026,OSAKA FU,OSAKA SHI NANIWA KU NANIWANISHI,NANIWANISHI,34.66188,135.492063
5560011,OSAKA FU,OSAKA SHI NANIWA KU NAMBANAKA,NAMBANAKA,34.65867,135.500203
5560005,OSAKA FU,OSAKA SHI NANIWA KU NIPPOMBASHI,NIPPOMBASHI,34.653925,135.499572
5560006,OSAKA FU,OSAKA SHI NANIWA KU NIPPOMBASHIHIGASHI,NIPPOMBASHIHIGASHI,34.665038,135.496913
5560004,OSAKA FU,OSAKA SHI NANIWA KU NIPPOMBASHINISHI,NIPPOMBASHINISHI,34.665648,135.482266
5560017,OSAKA FU,OSAKA SHI NANIWA KU MINATOMACHI,MINATOMACHI,34.658588,135.49543
5560016,OSAKA FU,OSAKA SHI NANIWA KU MOTOMACHI,MOTOMACHI,34.664917,135.498899
5550000,OSAKA FU,OSAKA SHI NISHIYODOGAWA KU IKANIKEISAIGANAIBAAI,IKANIKEISAIGANAIBAAI,,
5550021,OSAKA FU,OSAKA SHI NISHIYODOGAWA KU UTAJIMA,UTAJIMA,34.708539,135.470857
5550043,OSAKA FU,OSAKA SHI NISHIYODOGAWA KU ONO,ONO,34.695566,135.438173
5550032,OSAKA FU,OSAKA SHI NISHIYODOGAWA KU OWADA,OWADA,34.709968,135.463902
5550022,OSAKA FU,OSAKA SHI NISHIYODOGAWA KU KASHIWAZATO,KASHIWAZATO,34.723089,135.4585
5550011,OSAKA FU,OSAKA SHI NISHIYODOGAWA KU TAKESHIMA,TAKESHIMA,34.708706,135.453687
5550013,OSAKA FU,OSAKA SHI NISHIYODOGAWA KU CHIBUNE,CHIBUNE,34.715464,135.465145
5550001,OSAKA FU,OSAKA SHI NISHIYODOGAWA KU TSUKUDA,TSUKUDA,34.70639,135.450555
5550031,OSAKA FU,OSAKA SHI NISHIYODOGAWA KU DEKIJIMA,DEKIJIMA,34.703221,135.462406
5550041,OSAKA FU,OSAKA SHI NISHIYODOGAWA KU NAKASHIMA,NAKASHIMA,34.70218,135.439407
5550042,OSAKA FU,OSAKA SHI NISHIYODOGAWA KU NISHISHIMA,NISHISHIMA,34.707816,135.438613
5550024,OSAKA FU,OSAKA SHI NISHIYODOGAWA KU NOZATO,NOZATO,34.701026,135.458004
5550023,OSAKA FU,OSAKA SHI NISHIYODOGAWA KU HANAKAWA,HANAKAWA,34.696592,135.447687
5550025,OSAKA FU,OSAKA SHI NISHIYODOGAWA KU HIMESATO,HIMESATO,34.712851,135.456994
5550033,OSAKA FU,OSAKA SHI NISHIYODOGAWA KU HIMESHIMA,HIMESHIMA,34.718471,135.448641
5550044,OSAKA FU,OSAKA SHI NISHIYODOGAWA KU HYAKUSHIMA,HYAKUSHIMA,34.706724,135.468576
5550034,OSAKA FU,OSAKA SHI NISHIYODOGAWA KU FUKUMACHI,FUKUMACHI,34.695647,135.430327
5550012,OSAKA FU,OSAKA SHI NISHIYODOGAWA KU MITEJIMA,MITEJIMA,34.702568,135.425009
5330000,OSAKA FU,OSAKA SHI HIGASHIYODOGAWA KU IKANIKEISAIGANAIBAAI,IKANIKEISAIGANAIBAAI,,
5330007,OSAKA FU,OSAKA SHI HIGASHIYODOGAWA KU AIKAWA,AIKAWA,34.730218,135.502842
5330032,OSAKA FU,OSAKA SHI HIGASHIYODOGAWA KU AWAJI,AWAJI,34.743554,135.518693
5330001,OSAKA FU,OSAKA SHI HIGASHIYODOGAWA KU ITAKANO,ITAKANO,34.735809,135.527162
5330015,OSAKA FU,OSAKA SHI HIGASHIYODOGAWA KU OSUMI,OSUMI,34.758993,135.541483
5330006,OSAKA FU,OSAKA SHI HIGASHIYODOGAWA KU KAMISHINJO,KAMISHINJO,34.748378,135.540204
5330002,OSAKA FU,OSAKA SHI HIGASHIYODOGAWA KU KITAEGUCHI,KITAEGUCHI,34.734585,135.521291
5330024,OSAKA FU,OSAKA SHI HIGASHIYODOGAWA KU KUNIJIMA,KUNIJIMA,34.752086,135.534622
5330004,OSAKA FU,OSAKA SHI HIGASHIYODOGAWA KU KOMATSU,KOMATSU,34.740405,135.551308
5330021,OSAKA FU,OSAKA SHI HIGASHIYODOGAWA KU SHIMOSHINJO,SHIMOSHINJO,34.748686,135.535405
5330005,OSAKA FU,OSAKA SHI HIGASHIYODOGAWA KU ZUIKO,ZUIKO,34.736921,135.535973
5330022,OSAKA FU,OSAKA SHI HIGASHIYODOGAWA KU SUGAHARA,SUGAHARA,34.736508,135.509095
5330011,OSAKA FU,OSAKA SHI HIGASHIYODOGAWA KU DAIDO,DAIDO,34.742015,135.532822
5330012,OSAKA FU,OSAKA SHI HIGASHIYODOGAWA KU DAIDOMINAMI,DAIDOMINAMI,34.73711,135.504558
5330013,OSAKA FU,OSAKA SHI HIGASHIYODOGAWA KU TOYOSATO,TOYOSATO,34.745098,135.54545
5330031,OSAKA FU,OSAKA SHI HIGASHIYODOGAWA KU NISHIAWAJI,NISHIAWAJI,34.745156,135.52897
5330023,OSAKA FU,OSAKA SHI HIGASHIYODOGAWA KU HIGASHIAWAJI,HIGASHIAWAJI,34.755768,135.543111
5330033,OSAKA FU,OSAKA SHI HIGASHIYODOGAWA KU HIGASHINAKAJIMA,HIGASHINAKAJIMA,34.756896,135.532179
5330014,OSAKA FU,OSAKA SHI HIGASHIYODOGAWA KU HOSHIN,HOSHIN,34.76255,135.543099
5330003,OSAKA FU,OSAKA SHI HIGASHIYODOGAWA KU MINAMIEGUCHI,MINAMIEGUCHI,34.727286,135.50807
5370000,OSAKA FU,OSAKA SHI HIGASHINARI KU IKANIKEISAIGANAIBAAI,IKANIKEISAIGANAIBAAI,,
5370012,OSAKA FU,OSAKA SHI HIGASHINARI KU OIMAZATO,OIMAZATO,34.680418,135.55148
5370014,OSAKA FU,OSAKA SHI HIGASHINARI KU OIMAZATONISHI,OIMAZATONISHI,34.682001,135.541683
5370013,OSAKA FU,OSAKA SHI HIGASHINARI KU OIMAZATOMINAMI,OIMAZATOMINAMI,34.6672,135.544318
5370003,OSAKA FU,OSAKA SHI HIGASHINARI KU KAMIJI,KAMIJI,34.680973,135.547074
5370023,OSAKA FU,OSAKA SHI HIGASHINARI KU TAMATSU,TAMATSU,34.678471,135.55456
5370025,OSAKA FU,OSAKA SHI HIGASHINARI KU NAKAMICHI,NAKAMICHI,34.672361,135.537752
5370022,OSAKA FU,OSAKA SHI HIGASHINARI KU NAKAMOTO,NAKAMOTO,34.679666,135.535672
5370011,OSAKA FU,OSAKA SHI HIGASHINARI KU HIGASHIIMAZATO,HIGASHIIMAZATO,34.671709,135.541497
5370024,OSAKA FU,OSAKA SHI HIGASHINARI KU HIGASHIOBASE,HIGASHIOBASE,34.672645,135.53473
5370021,OSAKA FU,OSAKA SHI HIGASHINARI KU HIGASHINAKAMOTO,HIGASHINAKAMOTO,34.67274,135.545765
5370002,OSAKA FU,OSAKA SHI HIGASHINARI KU FUKAEMINAMI,FUKAEMINAMI,34.676495,135.556687
5370001,OSAKA FU,OSAKA SHI HIGASHINARI KU FUKAEKITA,FUKAEKITA,34.670875,135.555998
5440000,OSAKA FU,OSAKA SHI IKUNO KU IKANIKEISAIGANAIBAAI,IKANIKEISAIGANAIBAAI,,
5440025,OSAKA FU,OSAKA SHI IKUNO KU IKUNOHIGASHI,IKUNOHIGASHI,34.663515,135.542719
5440024,OSAKA FU,OSAKA SHI IKUNO KU IKUNONISHI,IKUNONISHI,34.650341,135.526426
5440021,OSAKA FU,OSAKA SHI IKUNO KU KATSUYAMAMINAMI,KATSUYAMAMINAMI,34.663851,135.54083
5440033,OSAKA FU,OSAKA SHI IKUNO KU KATSUYAMAKITA,KATSUYAMAKITA,34.645581,135.52886
5440022,OSAKA FU,OSAKA SHI IKUNO KU SHARIJI,SHARIJI,34.653285,135.528465
5440002,OSAKA FU,OSAKA SHI IKUNO KU SHOJI,SHOJI,34.662974,135.557682
5440003,OSAKA FU,OSAKA SHI IKUNO KU SHOJIHIGASHI,SHOJIHIGASHI,34.663815,135.544597
5440001,OSAKA FU,OSAKA SHI IKUNO KU SHINIMAZATO,SHINIMAZATO,34.66378,135.530765
5440011,OSAKA FU,OSAKA SHI IKUNO KU TAJIMA,TAJIMA,34.657476,135.547738
5440013,OSAKA FU,OSAKA SHI IKUNO KU TATSUMINAKA,TATSUMINAKA,34.652212,135.542346
5440014,OSAKA FU,OSAKA SHI IKUNO KU TATSUMIHIGASHI,TATSUMIHIGASHI,34.650126,135.531932
5440012,OSAKA FU,OSAKA SHI IKUNO KU TATSUMINISHI,TATSUMINISHI,34.66321,135.554333
5440015,OSAKA FU,OSAKA SHI IKUNO KU TATSUMIMINAMI,TATSUMIMINAMI,34.641266,135.54689
5440004,OSAKA FU,OSAKA SHI IKUNO KU TATSUMIKITA,TATSUMIKITA,34.651113,135.538241
5440031,OSAKA FU,OSAKA SHI IKUNO KU TSURUHASHI,TSURUHASHI,34.656065,135.529111
5440005,OSAKA FU,OSAKA SHI IKUNO KU NAKAGAWA,NAKAGAWA,34.659827,135.529717
5440006,OSAKA FU,OSAKA SHI IKUNO KU NAKAGAWAHIGASHI,NAKAGAWAHIGASHI,34.654894,135.545674
5440032,OSAKA FU,OSAKA SHI IKUNO KU NAKAGAWANISHI,NAKAGAWANISHI,34.652001,135.546189
5440023,OSAKA FU,OSAKA SHI IKUNO KU HAYASHIJI,HAYASHIJI,34.650811,135.555747
5440034,OSAKA FU,OSAKA SHI IKUNO KU MOMODANI,MOMODANI,34.652045,135.55158
5350000,OSAKA FU,OSAKA SHI ASAHI KU IKANIKEISAIGANAIBAAI,IKANIKEISAIGANAIBAAI,,
5350005,OSAKA FU,OSAKA SHI ASAHI KU AKAGAWA,AKAGAWA,34.72319,135.553015
5350004,OSAKA FU,OSAKA SHI ASAHI KU IKUE,IKUE,34.719733,135.53484
5350011,OSAKA FU,OSAKA SHI ASAHI KU IMAICHI,IMAICHI,34.716611,135.551604
5350002,OSAKA FU,OSAKA SHI ASAHI KU OMIYA,OMIYA,34.722616,135.533157
5350021,OSAKA FU,OSAKA SHI ASAHI KU SHIMIZU,SHIMIZU,34.722161,135.554874
5350022,OSAKA FU,OSAKA SHI ASAHI KU SHIMMORI,SHIMMORI,34.722293,135.536557
5350012,OSAKA FU,OSAKA SHI ASAHI KU SEMBAYASHI,SEMBAYASHI,34.721916,135.541096
5350001,OSAKA FU,OSAKA SHI ASAHI KU TAISHIBASHI,TAISHIBASHI,34.720028,135.549531
5350031,OSAKA FU,OSAKA SHI ASAHI KU TAKADONO,TAKADONO,34.727629,135.551786
5350003,OSAKA FU,OSAKA SHI ASAHI KU NAKAMIYA,NAKAMIYA,34.721028,135.545766
5350013,OSAKA FU,OSAKA SHI ASAHI KU MORISHOJI,MORISHOJI,34.733072,135.551631
5360000,OSAKA FU,OSAKA SHI JOTO KU IKANIKEISAIGANAIBAAI,IKANIKEISAIGANAIBAAI,,
5360002,OSAKA FU,OSAKA SHI JOTO KU IMAFUKUHIGASHI,IMAFUKUHIGASHI,34.69684,135.548216
5360004,OSAKA FU,OSAKA SHI JOTO KU IMAFUKUNISHI,IMAFUKUNISHI,34.698432,135.537448
5360003,OSAKA FU,OSAKA SHI JOTO KU IMAFUKUMINAMI,IMAFUKUMINAMI,34.687311,135.5471
5360016,OSAKA FU,OSAKA SHI JOTO KU GAMO,GAMO,34.705373,135.5418
5360015,OSAKA FU,OSAKA SHI JOTO KU SHIGITA,SHIGITA,34.696734,135.537457
5360017,OSAKA FU,OSAKA SHI JOTO KU SHIGITAHIGASHI,SHIGITAHIGASHI,34.69896,135.547961
5360013,OSAKA FU,OSAKA SHI JOTO KU SHIGINOHIGASHI,SHIGINOHIGASHI,34.688945,135.555892
5360014,OSAKA FU,OSAKA SHI JOTO KU SHIGINONISHI,SHIGINONISHI,34.702031,135.53894
5360021,OSAKA FU,OSAKA SHI JOTO KU SUWA,SUWA,34.701038,135.543686
5360007,OSAKA FU,OSAKA SHI JOTO KU SEIIKU,SEIIKU,34.687492,135.543379
5360008,OSAKA FU,OSAKA SHI JOTO KU SEKIME,SEKIME,34.693423,135.55361
5360005,OSAKA FU,OSAKA SHI JOTO KU CHUO,CHUO,34.694521,135.545027
5360012,OSAKA FU,OSAKA SHI JOTO KU TENNODEN,TENNODEN,34.694879,135.549431
5360024,OSAKA FU,OSAKA SHI JOTO KU NAKAHAMA,NAKAHAMA,34.686094,135.561839
5360022,OSAKA FU,OSAKA SHI JOTO KU NAGATA,NAGATA,34.707058,135.548151
5360006,OSAKA FU,OSAKA SHI JOTO KU NOE,NOE,34.694548,135.537136
5360011,OSAKA FU,OSAKA SHI JOTO KU HANATENNISHI,HANATENNISHI,34.700536,135.557464
5360023,OSAKA FU,OSAKA SHI JOTO KU HIGASHINAKAHAMA,HIGASHINAKAHAMA,,
5360001,OSAKA FU,OSAKA SHI JOTO KU FURUICHI,FURUICHI,34.70716,135.557133
5360025,OSAKA FU,OSAKA SHI JOTO KU MORINOMIYA,MORINOMIYA,34.685682,135.536209
5450000,OSAKA FU,OSAKA SHI ABENO KU IKANIKEISAIGANAIBAAI,IKANIKEISAIGANAIBAAI,,
5450033,OSAKA FU,OSAKA SHI ABENO KU AIOIDORI,AIOIDORI,34.639652,135.522761
5450051,OSAKA FU,OSAKA SHI ABENO KU ASAHIMACHI,ASAHIMACHI,34.646284,135.509179
5450052,OSAKA FU,OSAKA SHI ABENO KU ABENOSUJI (TSUGINOBIRUONOZOKU),ABENOSUJI (TSUGINOBIRUONOZOKU),34.623533,135.506223
5456090,OSAKA FU,OSAKA SHI ABENO KU ABENOSUJI ABENOHARUKASU(CHIKAI.KAIS,ABENOSUJI ABENOHARUKASU(CHIKAI.KAIS,,
5450034,OSAKA FU,OSAKA SHI ABENO KU ABENOMOTOMACHI,ABENOMOTOMACHI,34.63504,135.508792
5450023,OSAKA FU,OSAKA SHI ABENO KU OJICHO,OJICHO,34.637053,135.508321
5450035,OSAKA FU,OSAKA SHI ABENO KU KITABATAKE,KITABATAKE,34.639155,135.508327
5450041,OSAKA FU,OSAKA SHI ABENO KU KYORITSUDORI,KYORITSUDORI,34.643407,135.521006
5450005,OSAKA FU,OSAKA SHI ABENO KU SAMMEICHO,SAMMEICHO,34.645448,135.521088
5450011,OSAKA FU,OSAKA SHI ABENO KU SHOWACHO,SHOWACHO,34.635242,135.511031
5450032,OSAKA FU,OSAKA SHI ABENO KU SEIMEIDORI,SEIMEIDORI,34.645732,135.51332
5450037,OSAKA FU,OSAKA SHI ABENO KU TEZUKAYAMA,TEZUKAYAMA,34.638216,135.519539
5450002,OSAKA FU,OSAKA SHI ABENO KU TENNOJICHOMINAMI,TENNOJICHOMINAMI,34.63435,135.518441
5450001,OSAKA FU,OSAKA SHI ABENO KU TENNOJICHOKITA,TENNOJICHOKITA,34.630428,135.521567
5450013,OSAKA FU,OSAKA SHI ABENO KU NAGAIKECHO,NAGAIKECHO,34.642162,135.520598
5450014,OSAKA FU,OSAKA SHI ABENO KU NISHITANABECHO,NISHITANABECHO,34.636529,135.514886
5450031,OSAKA FU,OSAKA SHI ABENO KU HASHIMOTOCHO,HASHIMOTOCHO,34.623487,135.509699
5450022,OSAKA FU,OSAKA SHI ABENO KU HARIMACHO,HARIMACHO,34.645007,135.517672
5450021,OSAKA FU,OSAKA SHI ABENO KU HANNANCHO,HANNANCHO,34.629479,135.504985
5450036,OSAKA FU,OSAKA SHI ABENO KU BANDAI,BANDAI,34.619937,135.515977
5450003,OSAKA FU,OSAKA SHI ABENO KU BISHOEN,BISHOEN,,
5450004,OSAKA FU,OSAKA SHI ABENO KU FUMINOSATO,FUMINOSATO,34.626015,135.506747
5450053,OSAKA FU,OSAKA SHI ABENO KU MATSUZAKICHO,MATSUZAKICHO,,
5450043,OSAKA FU,OSAKA SHI ABENO KU MATSUMUSHIDORI,MATSUMUSHIDORI,,
5450042,OSAKA FU,OSAKA SHI ABENO KU MARUYAMADORI,MARUYAMADORI,,
5450012,OSAKA FU,OSAKA SHI ABENO KU MOMOGAIKECHO,MOMOGAIKECHO,34.625183,135.499971
5580000,OSAKA FU,OSAKA SHI SUMIYOSHI KU IKANIKEISAIGANAIBAAI,IKANIKEISAIGANAIBAAI,,
5580021,OSAKA FU,OSAKA SHI SUMIYOSHI KU ASAKA,ASAKA,34.619985,135.508079
5580014,OSAKA FU,OSAKA SHI SUMIYOSHI KU ABIKO,ABIKO,34.623763,135.500729
5580013,OSAKA FU,OSAKA SHI SUMIYOSHI KU ABIKOHIGASHI,ABIKOHIGASHI,34.621033,135.507273
5580015,OSAKA FU,OSAKA SHI SUMIYOSHI KU ABIKONISHI,ABIKONISHI,34.606102,135.49986
5580046,OSAKA FU,OSAKA SHI SUMIYOSHI KU UESUMIYOSHI,UESUMIYOSHI,34.622544,135.503057
5580032,OSAKA FU,OSAKA SHI SUMIYOSHI KU ORIONO,ORIONO,34.62295,135.49719
5580011,OSAKA FU,OSAKA SHI SUMIYOSHI KU KARITA,KARITA,34.608092,135.500391
5580031,OSAKA FU,OSAKA SHI SUMIYOSHI KU SAWANOCHO,SAWANOCHO,,
5580033,OSAKA FU,OSAKA SHI SUMIYOSHI KU SHIMIZUGAOKA,SHIMIZUGAOKA,,
5580022,OSAKA FU,OSAKA SHI SUMIYOSHI KU SUGIMOTO,SUGIMOTO,34.614307,135.509256
5580043,OSAKA FU,OSAKA SHI SUMIYOSHI KU SUMIE,SUMIE,34.615044,135.512933
5580045,OSAKA FU,OSAKA SHI SUMIYOSHI KU SUMIYOSHI,SUMIYOSHI,34.599821,135.498404
5580047,OSAKA FU,OSAKA SHI SUMIYOSHI KU SENTAI,SENTAI,34.622294,135.493983
5580001,OSAKA FU,OSAKA SHI SUMIYOSHI KU DAIRYO,DAIRYO,,
5580053,OSAKA FU,OSAKA SHI SUMIYOSHI KU TEZUKAYAMANAKA,TEZUKAYAMANAKA,34.6099,135.493381
5580054,OSAKA FU,OSAKA SHI SUMIYOSHI KU TEZUKAYAMAHIGASHI,TEZUKAYAMAHIGASHI,34.604466,135.498434
5580052,OSAKA FU,OSAKA SHI SUMIYOSHI KU TEZUKAYAMANISHI,TEZUKAYAMANISHI,34.605147,135.510159
5580042,OSAKA FU,OSAKA SHI SUMIYOSHI KU TONOTSUJI,TONOTSUJI,34.603915,135.520717
5580003,OSAKA FU,OSAKA SHI SUMIYOSHI KU NAGAI,NAGAI,34.604995,135.507329
5580004,OSAKA FU,OSAKA SHI SUMIYOSHI KU NAGAIHIGASHI,NAGAIHIGASHI,34.610578,135.499012
5580002,OSAKA FU,OSAKA SHI SUMIYOSHI KU NAGAINISHI,NAGAINISHI,34.595393,135.509069
5580044,OSAKA FU,OSAKA SHI SUMIYOSHI KU NAGAOCHO,NAGAOCHO,34.604002,135.512125
5580012,OSAKA FU,OSAKA SHI SUMIYOSHI KU NIWAI,NIWAI,34.595487,135.521247
5580055,OSAKA FU,OSAKA SHI SUMIYOSHI KU BANDAI,BANDAI,34.599943,135.502555
5580056,OSAKA FU,OSAKA SHI SUMIYOSHI KU BANDAIHIGASHI,BANDAIHIGASHI,34.61061,135.504125
5580051,OSAKA FU,OSAKA SHI SUMIYOSHI KU HIGASHIKOHAMA,HIGASHIKOHAMA,34.613916,135.496317
5580041,OSAKA FU,OSAKA SHI SUMIYOSHI KU MINAMISUMIYOSHI,MINAMISUMIYOSHI,34.591243,135.510936
5580023,OSAKA FU,OSAKA SHI SUMIYOSHI KU YAMANOCHI,YAMANOCHI,34.607302,135.521513
5580024,OSAKA FU,OSAKA SHI SUMIYOSHI KU YAMANOCHIMOTOMACHI,YAMANOCHIMOTOMACHI,34.604828,135.492362
5460000,OSAKA FU,OSAKA SHI HIGASHISUMIYOSHI KU IKANIKEISAIGANAIBAAI,IKANIKEISAIGANAIBAAI,,
5460003,OSAKA FU,OSAKA SHI HIGASHISUMIYOSHI KU IMAGAWA,IMAGAWA,34.632794,135.530067
5460001,OSAKA FU,OSAKA SHI HIGASHISUMIYOSHI KU IMABAYASHI,IMABAYASHI,34.627662,135.524594
5460044,OSAKA FU,OSAKA SHI HIGASHISUMIYOSHI KU KITATANABE,KITATANABE,34.607521,135.534415
5460002,OSAKA FU,OSAKA SHI HIGASHISUMIYOSHI KU KUMATA,KUMATA,34.639018,135.536894
5460041,OSAKA FU,OSAKA SHI HIGASHISUMIYOSHI KU KUWAZU,KUWAZU,34.620014,135.533839
5460024,OSAKA FU,OSAKA SHI HIGASHISUMIYOSHI KU KOEMMINAMIYATA,KOEMMINAMIYATA,34.622717,135.536936
5460043,OSAKA FU,OSAKA SHI HIGASHISUMIYOSHI KU KOMAGAWA,KOMAGAWA,34.636234,135.524917
5460022,OSAKA FU,OSAKA SHI HIGASHISUMIYOSHI KU SUNJIYATA,SUNJIYATA,34.622091,135.524172
5460014,OSAKA FU,OSAKA SHI HIGASHISUMIYOSHI KU TAKAAI,TAKAAI,34.630809,135.536138
5460031,OSAKA FU,OSAKA SHI HIGASHISUMIYOSHI KU TANABE,TANABE,34.614708,135.534563
5460021,OSAKA FU,OSAKA SHI HIGASHISUMIYOSHI KU TERUGAOKAYATA,TERUGAOKAYATA,34.62814,135.523012
5460012,OSAKA FU,OSAKA SHI HIGASHISUMIYOSHI KU NAKANO,NAKANO,34.602235,135.534625
5460034,OSAKA FU,OSAKA SHI HIGASHISUMIYOSHI KU NAGAIKOEN,NAGAIKOEN,34.622207,135.528081
5460042,OSAKA FU,OSAKA SHI HIGASHISUMIYOSHI KU NISHIIMAGAWA,NISHIIMAGAWA,34.641849,135.530458
5460011,OSAKA FU,OSAKA SHI HIGASHISUMIYOSHI KU HARINAKANO,HARINAKANO,34.607427,135.528512
5460032,OSAKA FU,OSAKA SHI HIGASHISUMIYOSHI KU HIGASHITANABE,HIGASHITANABE,34.640327,135.541033
5460033,OSAKA FU,OSAKA SHI HIGASHISUMIYOSHI KU MINAMITANABE,MINAMITANABE,34.63261,135.532995
5460023,OSAKA FU,OSAKA SHI HIGASHISUMIYOSHI KU YATA,YATA,34.614591,135.528651
5460035,OSAKA FU,OSAKA SHI HIGASHISUMIYOSHI KU YAMASAKA,YAMASAKA,34.607467,135.525027
5460013,OSAKA FU,OSAKA SHI HIGASHISUMIYOSHI KU YUZATO,YUZATO,,
5570000,OSAKA FU,OSAKA SHI NISHINARI KU IKANIKEISAIGANAIBAAI,IKANIKEISAIGANAIBAAI,,
5570032,OSAKA FU,OSAKA SHI NISHINARI KU ASAHI,ASAHI,34.653268,135.491262
5570041,OSAKA FU,OSAKA SHI NISHINARI KU KISHINOSATO,KISHINOSATO,34.647813,135.503995
5570042,OSAKA FU,OSAKA SHI NISHINARI KU KISHINOSATOHIGASHI,KISHINOSATOHIGASHI,34.651457,135.494233
5570061,OSAKA FU,OSAKA SHI NISHINARI KU KITATSUMORI,KITATSUMORI,34.643844,135.502534
5570021,OSAKA FU,OSAKA SHI NISHINARI KU KITABIRAKI,KITABIRAKI,34.650443,135.495438
5570001,OSAKA FU,OSAKA SHI NISHINARI KU SANNO,SANNO,34.651191,135.491789
5570052,OSAKA FU,OSAKA SHI NISHINARI KU SHIOJI,SHIOJI,34.632545,135.49996
5570012,OSAKA FU,OSAKA SHI NISHINARI KU SHOTENSHITA,SHOTENSHITA,34.642777,135.494442
5570054,OSAKA FU,OSAKA SHI NISHINARI KU SEMBONNAKA,SEMBONNAKA,34.637538,135.502132
5570055,OSAKA FU,OSAKA SHI NISHINARI KU SEMBOMMINAMI,SEMBOMMINAMI,34.641699,135.496888
5570053,OSAKA FU,OSAKA SHI NISHINARI KU SEMBONKITA,SEMBONKITA,34.644366,135.49468
5570002,OSAKA FU,OSAKA SHI NISHINARI KU TAISHI,TAISHI,34.64094,135.494156
5570051,OSAKA FU,OSAKA SHI NISHINARI KU TACHIBANA,TACHIBANA,34.63891,135.493845
5570044,OSAKA FU,OSAKA SHI NISHINARI KU TAMADENAKA,TAMADENAKA,34.636097,135.493424
5570043,OSAKA FU,OSAKA SHI NISHINARI KU TAMADEHIGASHI,TAMADEHIGASHI,34.647291,135.506627
5570045,OSAKA FU,OSAKA SHI NISHINARI KU TAMADENISHI,TAMADENISHI,34.648486,135.501249
5570062,OSAKA FU,OSAKA SHI NISHINARI KU TSUMORI,TSUMORI,34.632511,135.497367
5570031,OSAKA FU,OSAKA SHI NISHINARI KU TSURUMIBASHI,TSURUMIBASHI,34.635959,135.495395
5570024,OSAKA FU,OSAKA SHI NISHINARI KU DESHIRO,DESHIRO,34.648441,135.495151
5570014,OSAKA FU,OSAKA SHI NISHINARI KU TENGACHAYA,TENGACHAYA,34.64627,135.494975
5570011,OSAKA FU,OSAKA SHI NISHINARI KU TENGACHAYAHIGASHI,TENGACHAYAHIGASHI,34.628496,135.495379
5570003,OSAKA FU,OSAKA SHI NISHINARI KU TENGACHAYAKITA,TENGACHAYAKITA,34.636082,135.490085
5570013,OSAKA FU,OSAKA SHI NISHINARI KU TENJINNOMORI,TENJINNOMORI,34.641318,135.503603
5570022,OSAKA FU,OSAKA SHI NISHINARI KU NAKABIRAKI,NAKABIRAKI,34.648942,135.498511
5570025,OSAKA FU,OSAKA SHI NISHINARI KU NAGAHASHI,NAGAHASHI,34.641171,135.499467
5570033,OSAKA FU,OSAKA SHI NISHINARI KU BAINAN,BAINAN,34.635789,135.484447
5570004,OSAKA FU,OSAKA SHI NISHINARI KU HAGINOCHAYA,HAGINOCHAYA,34.630529,135.490927
5570015,OSAKA FU,OSAKA SHI NISHINARI KU HANAZONOMINAMI,HANAZONOMINAMI,34.632994,135.491272
5570016,OSAKA FU,OSAKA SHI NISHINARI KU HANAZONOKITA,HANAZONOKITA,34.627736,135.492801
5570034,OSAKA FU,OSAKA SHI NISHINARI KU MATSU,MATSU,34.655259,135.483392
5570063,OSAKA FU,OSAKA SHI NISHINARI KU MINAMITSUMORI,MINAMITSUMORI,34.627427,135.488904
5570023,OSAKA FU,OSAKA SHI NISHINARI KU MINAMIBIRAKI,MINAMIBIRAKI,34.64593,135.482531
5320000,OSAKA FU,OSAKA SHI YODOGAWA KU IKANIKEISAIGANAIBAAI,IKANIKEISAIGANAIBAAI,,
5320031,OSAKA FU,OSAKA SHI YODOGAWA KU KASHIMA,KASHIMA,34.717995,135.48699
5320012,OSAKA FU,OSAKA SHI YODOGAWA KU KIKAWAHIGASHI,KIKAWAHIGASHI,34.728223,135.472648
5320013,OSAKA FU,OSAKA SHI YODOGAWA KU KIKAWANISHI,KIKAWANISHI,34.719914,135.491172
5320025,OSAKA FU,OSAKA SHI YODOGAWA KU SHINKITANO,SHINKITANO,34.722511,135.501436
5320024,OSAKA FU,OSAKA SHI YODOGAWA KU JUSOHOMMACHI,JUSOHOMMACHI,34.735837,135.500624
5320028,OSAKA FU,OSAKA SHI YODOGAWA KU JUSOMOTOIMAZATO,JUSOMOTOIMAZATO,34.710031,135.473343
5320023,OSAKA FU,OSAKA SHI YODOGAWA KU JUSOHIGASHI,JUSOHIGASHI,34.718449,135.472533
5320001,OSAKA FU,OSAKA SHI YODOGAWA KU JUHACHIJO,JUHACHIJO,34.727038,135.484672
5320027,OSAKA FU,OSAKA SHI YODOGAWA KU TAGAWA,TAGAWA,34.721589,135.493403
5320021,OSAKA FU,OSAKA SHI YODOGAWA KU TAGAWAKITA,TAGAWAKITA,34.741236,135.501683
5320026,OSAKA FU,OSAKA SHI YODOGAWA KU TSUKAMOTO,TSUKAMOTO,34.719196,135.480314
5320033,OSAKA FU,OSAKA SHI YODOGAWA KU NIITAKA,NIITAKA,34.724565,135.475092
5320011,OSAKA FU,OSAKA SHI YODOGAWA KU NISHINAKAJIMA,NISHINAKAJIMA,34.742174,135.49114
5320006,OSAKA FU,OSAKA SHI YODOGAWA KU NISHIMIKUNI,NISHIMIKUNI,34.731695,135.481363
5320004,OSAKA FU,OSAKA SHI YODOGAWA KU NISHIMIYAHARA,NISHIMIYAHARA,34.730944,135.472541
5320022,OSAKA FU,OSAKA SHI YODOGAWA KU NONAKAMINAMI,NONAKAMINAMI,34.717622,135.476332
5320034,OSAKA FU,OSAKA SHI YODOGAWA KU NONAKAKITA,NONAKAKITA,34.727053,135.475552
5320002,OSAKA FU,OSAKA SHI YODOGAWA KU HIGASHIMIKUNI,HIGASHIMIKUNI,34.73243,135.492405
5320005,OSAKA FU,OSAKA SHI YODOGAWA KU MIKUNIHOMMACHI,MIKUNIHOMMACHI,34.729589,135.48256
5320036,OSAKA FU,OSAKA SHI YODOGAWA KU MITSUYANAKA,MITSUYANAKA,34.748496,135.494821
5320035,OSAKA FU,OSAKA SHI YODOGAWA KU MITSUYAMINAMI,MITSUYAMINAMI,34.715752,135.4829
5320032,OSAKA FU,OSAKA SHI YODOGAWA KU MITSUYAKITA,MITSUYAKITA,34.731242,135.48736
5320003,OSAKA FU,OSAKA SHI YODOGAWA KU MIYAHARA,MIYAHARA,34.725844,135.459801
5380000,OSAKA FU,OSAKA SHI TSURUMI KU IKANIKEISAIGANAIBAAI,IKANIKEISAIGANAIBAAI,,
5380042,OSAKA FU,OSAKA SHI TSURUMI KU IMAZUNAKA,IMAZUNAKA,34.691812,135.567809
5380043,OSAKA FU,OSAKA SHI TSURUMI KU IMAZUMINAMI,IMAZUMINAMI,34.689036,135.567842
5380041,OSAKA FU,OSAKA SHI TSURUMI KU IMAZUKITA,IMAZUKITA,34.706602,135.580401
5380053,OSAKA FU,OSAKA SHI TSURUMI KU TSURUMI,TSURUMI,34.698873,135.581669
5380034,OSAKA FU,OSAKA SHI TSURUMI KU TOKUAN,TOKUAN,34.711977,135.561553
5380033,OSAKA FU,OSAKA SHI TSURUMI KU NAKANOCHAYA,NAKANOCHAYA,34.70369,135.587402
5380044,OSAKA FU,OSAKA SHI TSURUMI KU HANATENHIGASHI,HANATENHIGASHI,34.700754,135.584971
5380035,OSAKA FU,OSAKA SHI TSURUMI KU HAMA,HAMA,34.694813,135.567775
5380031,OSAKA FU,OSAKA SHI TSURUMI KU MATTAOMIYA,MATTAOMIYA,34.699124,135.576614
5380054,OSAKA FU,OSAKA SHI TSURUMI KU MIDORI,MIDORI,34.697479,135.56427
5380051,OSAKA FU,OSAKA SHI TSURUMI KU MOROKUCHI,MOROKUCHI,34.715405,135.583828
5380037,OSAKA FU,OSAKA SHI TSURUMI KU YAKENO,YAKENO,34.710879,135.589496
5380032,OSAKA FU,OSAKA SHI TSURUMI KU YASUDA,YASUDA,34.70064,135.568606
5380052,OSAKA FU,OSAKA SHI TSURUMI KU YOKOZUTSUMI,YOKOZUTSUMI,34.694468,135.562719
5380036,OSAKA FU,OSAKA SHI TSURUMI KU RYOKUCHIKOEN,RYOKUCHIKOEN,,
5590000,OSAKA FU,OSAKA SHI SUMINOE KU IKANIKEISAIGANAIBAAI,IKANIKEISAIGANAIBAAI,,
5590003,OSAKA FU,OSAKA SHI SUMINOE KU ANRYU,ANRYU,34.605352,135.487992
5590023,OSAKA FU,OSAKA SHI SUMINOE KU IZUMI,IZUMI,34.608509,135.489831
5590011,OSAKA FU,OSAKA SHI SUMINOE KU KITAKAGAYA,KITAKAGAYA,34.620393,135.477358
5590014,OSAKA FU,OSAKA SHI SUMINOE KU KITAJIMA,KITAJIMA,34.620364,135.484438
5590001,OSAKA FU,OSAKA SHI SUMINOE KU KOHAMA,KOHAMA,34.620287,135.480709
5590007,OSAKA FU,OSAKA SHI SUMINOE KU KOHAMANISHI,KOHAMANISHI,34.611831,135.482072
5590021,OSAKA FU,OSAKA SHI SUMINOE KU SHIBATANI,SHIBATANI,34.612203,135.488416
5590024,OSAKA FU,OSAKA SHI SUMINOE KU SHINKITAJIMA,SHINKITAJIMA,34.61162,135.475177
5590004,OSAKA FU,OSAKA SHI SUMINOE KU SUMINOE,SUMINOE,34.61841,135.472127
5590017,OSAKA FU,OSAKA SHI SUMINOE KU NAKAKAGAYA,NAKAKAGAYA,34.612551,135.485367
5590033,OSAKA FU,OSAKA SHI SUMINOE KU NANKONAKA,NANKONAKA,34.606954,135.471566
5590031,OSAKA FU,OSAKA SHI SUMINOE KU NANKOHIGASHI,NANKOHIGASHI,34.606089,135.486031
5590032,OSAKA FU,OSAKA SHI SUMINOE KU NANKOMINAMI,NANKOMINAMI,34.600197,135.480717
5590034,OSAKA FU,OSAKA SHI SUMINOE KU NANKOKITA,NANKOKITA,34.62108,135.490937
5590016,OSAKA FU,OSAKA SHI SUMINOE KU NISHIKAGAYA,NISHIKAGAYA,34.621494,135.488261
5590005,OSAKA FU,OSAKA SHI SUMINOE KU NISHISUMINOE,NISHISUMINOE,34.623603,135.480655
5590002,OSAKA FU,OSAKA SHI SUMINOE KU HAMAGUCHIHIGASHI,HAMAGUCHIHIGASHI,34.624768,135.426907
5590006,OSAKA FU,OSAKA SHI SUMINOE KU HAMAGUCHINISHI,HAMAGUCHINISHI,,
5590012,OSAKA FU,OSAKA SHI SUMINOE KU HIGASHIKAGAYA,HIGASHIKAGAYA,34.611068,135.441415
5590025,OSAKA FU,OSAKA SHI SUMINOE KU HIRABAYASHIMINAMI,HIRABAYASHIMINAMI,34.623683,135.465914
5590026,OSAKA FU,OSAKA SHI SUMINOE KU HIRABAYASHIKITA,HIRABAYASHIKITA,34.612082,135.469824
5590013,OSAKA FU,OSAKA SHI SUMINOE KU MISAKI,MISAKI,34.639792,135.418806
5590022,OSAKA FU,OSAKA SHI SUMINOE KU MIDORIGI,MIDORIGI,34.622863,135.454096
5590015,OSAKA FU,OSAKA SHI SUMINOE KU MINAMIKAGAYA,MINAMIKAGAYA,34.614639,135.452292
5470000,OSAKA FU,OSAKA SHI HIRANO KU IKANIKEISAIGANAIBAAI,IKANIKEISAIGANAIBAAI,,
5470024,OSAKA FU,OSAKA SHI HIRANO KU URIWARI,URIWARI,34.619533,135.557377
5470022,OSAKA FU,OSAKA SHI HIRANO KU URIWARIHIGASHI,URIWARIHIGASHI,34.627514,135.550467
5470025,OSAKA FU,OSAKA SHI HIRANO KU URIWARINISHI,URIWARINISHI,34.624117,135.558867
5470023,OSAKA FU,OSAKA SHI HIRANO KU URIWARIMINAMI,URIWARIMINAMI,34.607631,135.565972
5470004,OSAKA FU,OSAKA SHI HIRANO KU KAMIKURATSUKURI,KAMIKURATSUKURI,34.628294,135.556956
5470006,OSAKA FU,OSAKA SHI HIRANO KU KAMISHOGAKUJI,KAMISHOGAKUJI,34.630614,135.545179
5470002,OSAKA FU,OSAKA SHI HIRANO KU KAMIHIGASHI,KAMIHIGASHI,34.624294,135.550464
5470005,OSAKA FU,OSAKA SHI HIRANO KU KAMINISHI,KAMINISHI,34.623101,135.54218
5470003,OSAKA FU,OSAKA SHI HIRANO KU KAMIMINAMI,KAMIMINAMI,34.628242,135.553114
5470001,OSAKA FU,OSAKA SHI HIRANO KU KAMIKITA,KAMIKITA,34.619773,135.542222
5470027,OSAKA FU,OSAKA SHI HIRANO KU KIRE,KIRE,34.614675,135.550857
5470021,OSAKA FU,OSAKA SHI HIRANO KU KIREHIGASHI,KIREHIGASHI,34.62455,135.570597
5470026,OSAKA FU,OSAKA SHI HIRANO KU KIRENISHI,KIRENISHI,34.606507,135.550344
5470034,OSAKA FU,OSAKA SHI HIRANO KU SETOGUCHI,SETOGUCHI,34.619642,135.550612
5470014,OSAKA FU,OSAKA SHI HIRANO KU NAGAYOSHIKAWANABE,NAGAYOSHIKAWANABE,34.607519,135.55715
5470011,OSAKA FU,OSAKA SHI HIRANO KU NAGAYOSHIDETO,NAGAYOSHIDETO,34.615416,135.560612
5470016,OSAKA FU,OSAKA SHI HIRANO KU NAGAYOSHINAGAHARA,NAGAYOSHINAGAHARA,34.631899,135.567077
5470013,OSAKA FU,OSAKA SHI HIRANO KU NAGAYOSHINAGAHARAHIGASHI,NAGAYOSHINAGAHARAHIGASHI,34.614723,135.564489
5470015,OSAKA FU,OSAKA SHI HIRANO KU NAGAYOSHINAGAHARANISHI,NAGAYOSHINAGAHARANISHI,34.631782,135.55716
5470012,OSAKA FU,OSAKA SHI HIRANO KU NAGAYOSHIROKUTAN,NAGAYOSHIROKUTAN,34.626167,135.566609
5470032,OSAKA FU,OSAKA SHI HIRANO KU NAGAREMACHI,NAGAREMACHI,,
5470035,OSAKA FU,OSAKA SHI HIRANO KU NISHIWAKI,NISHIWAKI,34.632832,135.551122
5470042,OSAKA FU,OSAKA SHI HIRANO KU HIRANOICHIMACHI,HIRANOICHIMACHI,34.63409,135.547356
5470045,OSAKA FU,OSAKA SHI HIRANO KU HIRANOEMACHI,HIRANOEMACHI,34.615624,135.543739
5470048,OSAKA FU,OSAKA SHI HIRANO KU HIRANOBABA,HIRANOBABA,34.64213,135.555728
5470044,OSAKA FU,OSAKA SHI HIRANO KU HIRANOHOMMACHI,HIRANOHOMMACHI,34.596691,135.569923
5470046,OSAKA FU,OSAKA SHI HIRANO KU HIRANOMIYAMACHI,HIRANOMIYAMACHI,34.60708,135.546408
5470047,OSAKA FU,OSAKA SHI HIRANO KU HIRANOMOTOMACHI,HIRANOMOTOMACHI,34.596604,135.547981
5470043,OSAKA FU,OSAKA SHI HIRANO KU HIRANOHIGASHI,HIRANOHIGASHI,34.609715,135.580159
5470033,OSAKA FU,OSAKA SHI HIRANO KU HIRANONISHI,HIRANONISHI,34.607579,135.569928
5470031,OSAKA FU,OSAKA SHI HIRANO KU HIRANOMINAMI,HIRANOMINAMI,34.605182,135.574233
5470041,OSAKA FU,OSAKA SHI HIRANO KU HIRANOKITA,HIRANOKITA,34.62673,135.561988
5300000,OSAKA FU,OSAKA SHI KITA KU IKANIKEISAIGANAIBAAI,IKANIKEISAIGANAIBAAI,,
5300033,OSAKA FU,OSAKA SHI KITA KU IKEDACHO,IKEDACHO,34.706897,135.506328
5300021,OSAKA FU,OSAKA SHI KITA KU UKIDA,UKIDA,34.709092,135.508816
5300001,OSAKA FU,OSAKA SHI KITA KU UMEDA,UMEDA,,
5300025,OSAKA FU,OSAKA SHI KITA KU OGIMACHI,OGIMACHI,34.70718,135.504428
5300011,OSAKA FU,OSAKA SHI KITA KU OFUKACHO,OFUKACHO,,
5310076,OSAKA FU,OSAKA SHI KITA KU OYODONAKA (TSUGINOBIRUONOZOKU),OYODONAKA (TSUGINOBIRUONOZOKU),34.697324,135.49866
5310075,OSAKA FU,OSAKA SHI KITA KU OYODOMINAMI,OYODOMINAMI,,
5310077,OSAKA FU,OSAKA SHI KITA KU OYODOKITA,OYODOKITA,,
5300017,OSAKA FU,OSAKA SHI KITA KU KAKUDACHO,KAKUDACHO,,
5300026,OSAKA FU,OSAKA SHI KITA KU KAMIYAMACHO,KAMIYAMACHO,34.711324,135.514724
5300031,OSAKA FU,OSAKA SHI KITA KU KANEICHO,KANEICHO,34.696589,135.510137
5300023,OSAKA FU,OSAKA SHI KITA KU KUROSAKICHO,KUROSAKICHO,34.709604,135.517258
5300038,OSAKA FU,OSAKA SHI KITA KU KOBAICHO,KOBAICHO,,
5310064,OSAKA FU,OSAKA SHI KITA KU KOKUBUNJI,KOKUBUNJI,34.693518,135.512542
5300018,OSAKA FU,OSAKA SHI KITA KU KOMATSUBARACHO,KOMATSUBARACHO,34.698852,135.50308
5300012,OSAKA FU,OSAKA SHI KITA KU SHIBATA,SHIBATA,34.694216,135.507002
5300053,OSAKA FU,OSAKA SHI KITA KU SUEHIROCHO,SUEHIROCHO,,
5300046,OSAKA FU,OSAKA SHI KITA KU SUGAHARACHO,SUGAHARACHO,,
5300057,OSAKA FU,OSAKA SHI KITA KU SONEZAKI,SONEZAKI,34.70007,135.519955
5300002,OSAKA FU,OSAKA SHI KITA KU SONEZAKISHINCHI,SONEZAKISHINCHI,34.695272,135.498431
5300051,OSAKA FU,OSAKA SHI KITA KU TAIYUJICHO,TAIYUJICHO,,
5300013,OSAKA FU,OSAKA SHI KITA KU CHAYAMACHI,CHAYAMACHI,,
5300014,OSAKA FU,OSAKA SHI KITA KU TSURUNOCHO,TSURUNOCHO,34.711107,135.503145
5300045,OSAKA FU,OSAKA SHI KITA KU TENJINNISHIMACHI,TENJINNISHIMACHI,,
5300041,OSAKA FU,OSAKA SHI KITA KU TENJIMBASHI(1-6-CHOME),TENJIMBASHI(1-6-CHOME),,
5310041,OSAKA FU,OSAKA SHI KITA KU TENJIMBASHI(7.8-CHOME),TENJIMBASHI(7.8-CHOME),,
5300043,OSAKA FU,OSAKA SHI KITA KU TEMMA,TEMMA,,
5300042,OSAKA FU,OSAKA SHI KITA KU TEMMABASHI (TSUGINOBIRUONOZOKU),TEMMABASHI (TSUGINOBIRUONOZOKU),,
5306090,OSAKA FU,OSAKA SHI KITA KU TEMMABASHI OAP-TAWA(CHIKAI.KAISOFUM,TEMMABASHI OAP-TAWA(CHIKAI.KAISOFUM,,
5300003,OSAKA FU,OSAKA SHI KITA KU DOJIMA,DOJIMA,34.696594,135.515865
5300004,OSAKA FU,OSAKA SHI KITA KU DOJIMAHAMA,DOJIMAHAMA,34.69441,135.520073
5300035,OSAKA FU,OSAKA SHI KITA KU DOSHIN,DOSHIN,,
5300027,OSAKA FU,OSAKA SHI KITA KU DOYAMACHO,DOYAMACHO,34.696593,135.497659
5300056,OSAKA FU,OSAKA SHI KITA KU TOGANOCHO,TOGANOCHO,,
5310072,OSAKA FU,OSAKA SHI KITA KU TOYOSAKI,TOYOSAKI,34.71099,135.505472
5300016,OSAKA FU,OSAKA SHI KITA KU NAKAZAKI,NAKAZAKI,34.702979,135.488941
5300015,OSAKA FU,OSAKA SHI KITA KU NAKAZAKINISHI,NAKAZAKINISHI,,
5310071,OSAKA FU,OSAKA SHI KITA KU NAKATSU,NAKATSU,34.706045,135.489321
5300005,OSAKA FU,OSAKA SHI KITA KU NAKANOSHIMA (TSUGINOBIRUONOZOKU),NAKANOSHIMA (TSUGINOBIRUONOZOKU),,
5306190,OSAKA FU,OSAKA SHI KITA KU NAKANOSHIMA NAKANOSHIMADAIBIRU(CHIK,NAKANOSHIMA NAKANOSHIMADAIBIRU(CHIK,,
5310062,OSAKA FU,OSAKA SHI KITA KU NAGARANAKA,NAGARANAKA,34.711123,135.49576
5310063,OSAKA FU,OSAKA SHI KITA KU NAGARAHIGASHI,NAGARAHIGASHI,34.706437,135.49771
5310061,OSAKA FU,OSAKA SHI KITA KU NAGARANISHI,NAGARANISHI,,
5300022,OSAKA FU,OSAKA SHI KITA KU NANIWACHO,NANIWACHO,34.703566,135.509203
5300034,OSAKA FU,OSAKA SHI KITA KU NISHIKICHO,NISHIKICHO,,
5300047,OSAKA FU,OSAKA SHI KITA KU NISHITEMMA,NISHITEMMA,34.711518,135.508714
5300055,OSAKA FU,OSAKA SHI KITA KU NOZAKICHO,NOZAKICHO,34.700909,135.51656
5300028,OSAKA FU,OSAKA SHI KITA KU BANZAICHO,BANZAICHO,34.713932,135.513068
5300044,OSAKA FU,OSAKA SHI KITA KU HIGASHITEMMA,HIGASHITEMMA,,
5300032,OSAKA FU,OSAKA SHI KITA KU HINOKUCHICHO,HINOKUCHICHO,,
5310074,OSAKA FU,OSAKA SHI KITA KU HONJOHIGASHI,HONJOHIGASHI,,
5310073,OSAKA FU,OSAKA SHI KITA KU HONJONISHI,HONJONISHI,34.700013,135.497728
5300037,OSAKA FU,OSAKA SHI KITA KU MATSUGAECHO,MATSUGAECHO,34.692845,135.505432
5300052,OSAKA FU,OSAKA SHI KITA KU MINAMIOGIMACHI,MINAMIOGIMACHI,,
5300054,OSAKA FU,OSAKA SHI KITA KU MINAMIMORIMACHI,MINAMIMORIMACHI,34.711419,135.518461
5300024,OSAKA FU,OSAKA SHI KITA KU YAMAZAKICHO,YAMAZAKICHO,,
5300036,OSAKA FU,OSAKA SHI KITA KU YORIKIMACHI,YORIKIMACHI,34.708788,135.482656
5390000,OSAKA FU,OSAKA SHI CHUO KU IKANIKEISAIGANAIBAAI,IKANIKEISAIGANAIBAAI,,
5410052,OSAKA FU,OSAKA SHI CHUO KU AZUCHIMACHI,AZUCHIMACHI,34.689044,135.50739
5410047,OSAKA FU,OSAKA SHI CHUO KU AWAJIMACHI,AWAJIMACHI,34.677698,135.519191
5420061,OSAKA FU,OSAKA SHI CHUO KU ANDOJIMACHI,ANDOJIMACHI,34.685171,135.508148
5400019,OSAKA FU,OSAKA SHI CHUO KU IZUMIMACHI,IZUMIMACHI,34.687037,135.515642
5400022,OSAKA FU,OSAKA SHI CHUO KU ITOYAMACHI,ITOYAMACHI,34.686514,135.515699
5410042,OSAKA FU,OSAKA SHI CHUO KU IMABASHI,IMABASHI,,
5420064,OSAKA FU,OSAKA SHI CHUO KU UESHIO,UESHIO,34.685465,135.515666
5420062,OSAKA FU,OSAKA SHI CHUO KU UEHOMMACHINISHI,UEHOMMACHINISHI,34.682764,135.515654
5400005,OSAKA FU,OSAKA SHI CHUO KU UEMACHI,UEMACHI,34.684584,135.515625
5400038,OSAKA FU,OSAKA SHI CHUO KU UCHIAWAJIMACHI,UCHIAWAJIMACHI,34.689096,135.515726
5400013,OSAKA FU,OSAKA SHI CHUO KU UCHIKYUHOJIMACHI,UCHIKYUHOJIMACHI,34.687514,135.515708
5400037,OSAKA FU,OSAKA SHI CHUO KU UCHIHIRANOMACHI,UCHIHIRANOMACHI,34.684065,135.515717
5400026,OSAKA FU,OSAKA SHI CHUO KU UCHIHOMMACHI,UCHIHOMMACHI,34.687996,135.515712
5400002,OSAKA FU,OSAKA SHI CHUO KU OSAKAJO,OSAKAJO,34.679919,135.508619
5400021,OSAKA FU,OSAKA SHI CHUO KU OTEDORI,OTEDORI,34.68595,135.515708
5400008,OSAKA FU,OSAKA SHI CHUO KU OTEMAE,OTEMAE,34.681849,135.508602
5410048,OSAKA FU,OSAKA SHI CHUO KU KAWARAMACHI,KAWARAMACHI,34.680903,135.515575
5420066,OSAKA FU,OSAKA SHI CHUO KU KAWARAYAMACHI,KAWARAYAMACHI,34.688615,135.515704
5400016,OSAKA FU,OSAKA SHI CHUO KU KANZAKICHO,KANZAKICHO,34.682105,135.515519
5410057,OSAKA FU,OSAKA SHI CHUO KU KITAKYUHOJIMACHI,KITAKYUHOJIMACHI,,
5400023,OSAKA FU,OSAKA SHI CHUO KU KITASHIMMACHI,KITASHIMMACHI,34.679667,135.515559
5410041,OSAKA FU,OSAKA SHI CHUO KU KITAHAMA,KITAHAMA,,
5400031,OSAKA FU,OSAKA SHI CHUO KU KITAHAMAHIGASHI,KITAHAMAHIGASHI,34.675156,135.519223
5410056,OSAKA FU,OSAKA SHI CHUO KU KYUTAROMACHI,KYUTAROMACHI,34.682592,135.508321
5420072,OSAKA FU,OSAKA SHI CHUO KU KOZU,KOZU,34.683407,135.515722
5410043,OSAKA FU,OSAKA SHI CHUO KU KORAIBASHI,KORAIBASHI,,
5400018,OSAKA FU,OSAKA SHI CHUO KU KOKAWACHO,KOKAWACHO,34.690303,135.507905
5400033,OSAKA FU,OSAKA SHI CHUO KU KOKUMACHI,KOKUMACHI,34.686805,135.508588
5400010,OSAKA FU,OSAKA SHI CHUO KU ZAIMOKUCHO,ZAIMOKUCHO,34.678309,135.508626
5420082,OSAKA FU,OSAKA SHI CHUO KU SHIMANOCHI,SHIMANOCHI,34.670519,135.517889
5400034,OSAKA FU,OSAKA SHI CHUO KU SHIMAMACHI,SHIMAMACHI,,
5400015,OSAKA FU,OSAKA SHI CHUO KU JUNIKENCHO,JUNIKENCHO,34.670491,135.518857
5400001,OSAKA FU,OSAKA SHI CHUO KU SHIROMI,SHIROMI,34.679159,135.508631
5420085,OSAKA FU,OSAKA SHI CHUO KU SHINSAIBASHISUJI,SHINSAIBASHISUJI,34.689424,135.508109
5420074,OSAKA FU,OSAKA SHI CHUO KU SENNICHIMAE,SENNICHIMAE,34.688452,135.508095
5410055,OSAKA FU,OSAKA SHI CHUO KU SEMBACHUO,SEMBACHUO,34.687603,135.508099
5420084,OSAKA FU,OSAKA SHI CHUO KU SOEMONCHO,SOEMONCHO,34.688432,135.517486
5400012,OSAKA FU,OSAKA SHI CHUO KU TANIMACHI(1-CHOME-5-CHOME),TANIMACHI(1-CHOME-5-CHOME),34.686184,135.508131
5400004,OSAKA FU,OSAKA SHI CHUO KU TAMATSUKURI,TAMATSUKURI,34.684335,135.508136
5400035,OSAKA FU,OSAKA SHI CHUO KU TSURIGANECHO,TSURIGANECHO,34.667603,135.501718
5400032,OSAKA FU,OSAKA SHI CHUO KU TEMMABASHIKYOMACHI,TEMMABASHIKYOMACHI,34.683563,135.50814
5420063,OSAKA FU,OSAKA SHI CHUO KU TOHEI,TOHEI,,
5400028,OSAKA FU,OSAKA SHI CHUO KU TOKIWAMACHI,TOKIWAMACHI,,
5400025,OSAKA FU,OSAKA SHI CHUO KU TOKUICHO,TOKUICHO,34.676224,135.518986
5420077,OSAKA FU,OSAKA SHI CHUO KU DOTOMBORI(1-CHOMEHIGASHI),DOTOMBORI(1-CHOMEHIGASHI),34.668534,135.503207
5410045,OSAKA FU,OSAKA SHI CHUO KU DOSHOMACHI,DOSHOMACHI,,
5420065,OSAKA FU,OSAKA SHI CHUO KU NAKADERA,NAKADERA,34.680959,135.50861
5420076,OSAKA FU,OSAKA SHI CHUO KU NAMBA,NAMBA,34.668017,135.512848
5420075,OSAKA FU,OSAKA SHI CHUO KU NAMBASENNICHIMAE,NAMBASENNICHIMAE,34.670699,135.515065
5420086,OSAKA FU,OSAKA SHI CHUO KU NISHISHINSAIBASHI,NISHISHINSAIBASHI,34.66762,135.504389
5420073,OSAKA FU,OSAKA SHI CHUO KU NIPPOMBASHI,NIPPOMBASHI,,
5400011,OSAKA FU,OSAKA SHI CHUO KU NONIMBASHI,NONIMBASHI,34.672823,135.512511
5410059,OSAKA FU,OSAKA SHI CHUO KU BAKUROMACHI,BAKUROMACHI,34.691232,135.508113
5400007,OSAKA FU,OSAKA SHI CHUO KU BAMBACHO,BAMBACHO,,
5400039,OSAKA FU,OSAKA SHI CHUO KU HIGASHIKORAIBASHI,HIGASHIKORAIBASHI,,
5420083,OSAKA FU,OSAKA SHI CHUO KU HIGASHISHINSAIBASHI,HIGASHISHINSAIBASHI,,
5410046,OSAKA FU,OSAKA SHI CHUO KU HIRANOMACHI,HIRANOMACHI,,
5410051,OSAKA FU,OSAKA SHI CHUO KU BINGOMACHI,BINGOMACHI,34.690133,135.519944
5410044,OSAKA FU,OSAKA SHI CHUO KU FUSHIMIMACHI,FUSHIMIMACHI,34.673453,135.501351
5400036,OSAKA FU,OSAKA SHI CHUO KU FUNAKOSHICHO,FUNAKOSHICHO,34.673416,135.504317
5400006,OSAKA FU,OSAKA SHI CHUO KU HOENZAKA,HOENZAKA,,
5410053,OSAKA FU,OSAKA SHI CHUO KU HOMMACHI,HOMMACHI,,
5400029,OSAKA FU,OSAKA SHI CHUO KU HOMMACHIBASHI,HOMMACHIBASHI,,
5420067,OSAKA FU,OSAKA SHI CHUO KU MATSUYAMACHI,MATSUYAMACHI,34.679797,135.52394
5400017,OSAKA FU,OSAKA SHI CHUO KU MATSUYAMACHISUMIYOSHI,MATSUYAMACHISUMIYOSHI,34.676466,135.508617
5410058,OSAKA FU,OSAKA SHI CHUO KU MINAMIKYUHOJIMACHI,MINAMIKYUHOJIMACHI,34.673431,135.498715
5400024,OSAKA FU,OSAKA SHI CHUO KU MINAMISHIMMACHI,MINAMISHIMMACHI,34.666924,135.507328
5420081,OSAKA FU,OSAKA SHI CHUO KU MINAMISEMBA,MINAMISEMBA,34.679721,135.532952
5410054,OSAKA FU,OSAKA SHI CHUO KU MINAMIHOMMACHI,MINAMIHOMMACHI,34.676373,135.532244
5400003,OSAKA FU,OSAKA SHI CHUO KU MORINOMIYACHUO,MORINOMIYACHUO,34.673513,135.508561
5400027,OSAKA FU,OSAKA SHI CHUO KU YARIYAMACHI,YARIYAMACHI,34.691412,135.531221
5400014,OSAKA FU,OSAKA SHI CHUO KU RYUZOJICHO,RYUZOJICHO,34.676984,135.523895
